{
	"category1":{
		"name":"ペットボトル・紙パック",
		"places":[{
			"name":"市役所本庁",
			"address":"柏原市安堂町1番55号",
			"tel":"072-972-1501",
			"description":null,
			"links":[{
				"title":"ペットボトル・紙パックリサイクル",
				"url":"/docs/2014051500028/"
			}],
			"lat":34.579288,
			"lng":135.628656
		},{
			"name":"市役所別館",
			"address":"柏原市安堂町1番35号",
			"tel":"072-972-1501",
			"description":null,
			"links":[{
				"title":"ペットボトル・紙パックリサイクル",
				"url":"/docs/2014051500028/"
			}],
			"lat":34.577589,
			"lng":135.629589
		},{
			"name":"市役所教育センター",
			"address":"柏原市安堂町1番43号",
			"tel":"072-972-1501",
			"description":null,
			"links":[{
				"title":"ペットボトル・紙パックリサイクル",
				"url":"/docs/2014051500028/"
			}],
			"lat":34.578414,
			"lng":135.629184
		},{
			"name":"国分出張所",
			"address":"柏原市国分本町2丁目7番2号",
			"tel":"072-978-6001",
			"description":null,
			"links":[{
				"title":"ペットボトル・紙パックリサイクル",
				"url":"/docs/2014051500028/"
			}],
			"lat":34.565215,
			"lng":135.636424
		},{
			"name":"堅上出張所",
			"address":"柏原市雁多尾畑4812番地の1",
			"tel":"072-979-0572",
			"description":null,
			"links":[{
				"title":"ペットボトル・紙パックリサイクル",
				"url":"/docs/2014051500028/"
			}],
			"lat":34.586882,
			"lng":135.664658
		},{
			"name":"玉手浄水場",
			"address":"柏原市玉手町17番1号",
			"tel":"072-978-6671",
			"description":null,
			"links":[{
				"title":"ペットボトル・紙パックリサイクル",
				"url":"/docs/2014051500028/"
			}],
			"lat":34.566346,
			"lng":135.623109
		},{
			"name":"市立柏原図書館",
			"address":"柏原市上市4丁目1番27号",
			"tel":"072-971-0335",
			"description":null,
			"links":[{
				"title":"ペットボトル・紙パックリサイクル",
				"url":"/docs/2014051500028/"
			}],
			"lat":34.587044,
			"lng":135.625888
		},{
			"name":"市立国分図書館",
			"address":"柏原市田辺1丁目3番7号",
			"tel":"072-975-1212",
			"description":null,
			"links":[{
				"title":"ペットボトル・紙パックリサイクル",
				"url":"/docs/2014051500028/"
			}],
			"lat":34.562899,
			"lng":135.637989
		},{
			"name":"市立体育館",
			"address":"柏原市玉手町25-80",
			"tel":"072-977-8600",
			"description":null,
			"links":[{
				"title":"ペットボトル・紙パックリサイクル",
				"url":"/docs/2014051500028/"
			}],
			"lat":34.56722,
			"lng":135.63049
		},{
			"name":"KIホール（勤労者センター）",
			"address":"柏原市大正2丁目10番1号",
			"tel":"072-972-5557",
			"description":null,
			"links":[{
				"title":"ペットボトル・紙パックリサイクル",
				"url":"/docs/2014051500028/"
			}],
			"lat":34.583758,
			"lng":135.618229
		},{
			"name":"玉手山公園",
			"address":"柏原市玉手町271番地",
			"tel":null,
			"description":null,
			"links":[{
				"title":"ペットボトル・紙パックリサイクル",
				"url":"/docs/2014051500028/"
			}],
			"lat":34.56185,
			"lng":135.62833
		},{
			"name":"保険センター（オアシス）",
			"address":"柏原市大県4丁目15番35号",
			"tel":"072-973-5516",
			"description":null,
			"links":[{
				"title":"ペットボトル・紙パックリサイクル",
				"url":"/docs/2014051500028/"
			}],
			"lat":34.587548,
			"lng":135.63305
		},{
			"name":"(株)万代柏原大県店",
			"address":"柏原市大県３丁目１３−４３",
			"tel":"072-973-5571",
			"description":null,
			"links":[{
				"title":"ペットボトル・紙パックリサイクル",
				"url":"/docs/2014051500028/"
			}],
			"lat":34.585532,
			"lng":135.630476
		},{
			"name":"ライフ国分店",
			"address":"柏原市国分本町１丁目１－１",
			"tel":"072-977-8841",
			"description":null,
			"links":[{
				"title":"ペットボトル・紙パックリサイクル",
				"url":"/docs/2014051500028/"
			}],
			"lat":34.566876,
			"lng":135.636008
		},{
			"name":"スーパーマルヒ国分店",
			"address":"柏原市国分本町７丁目１０−４３",
			"tel":"072-977-2238",
			"description":null,
			"links":[{
				"title":"ペットボトル・紙パックリサイクル",
				"url":"/docs/2014051500028/"
			}],
			"lat":34.564362,
			"lng":135.643714
		},{
			"name":"スーパーはやし",
			"address":"柏原市国分西2丁目234",
			"tel":"072-977-4110",
			"description":null,
			"links":[{
				"title":"ペットボトル・紙パックリサイクル",
				"url":"/docs/2014051500028/"
			}],
			"lat":34.564422,
			"lng":135.635218
		},{
			"name":"デイリーカナートイズミヤ玉手店",
			"address":"柏原市玉手町２４−３２",
			"tel":"072-977-7610",
			"description":null,
			"links":[{
				"title":"ペットボトル・紙パックリサイクル",
				"url":"/docs/2014051500028/"
			}],
			"lat":34.567802,
			"lng":135.627041
		},{
			"name":"大阪中河内農協",
			"address":"柏原市大県３丁目４−５",
			"tel":"072-971-0285",
			"description":null,
			"links":[{
				"title":"ペットボトル・紙パックリサイクル",
				"url":"/docs/2014051500028/"
			}],
			"lat":34.589296,
			"lng":135.629048
		},{
			"name":"西村商店（紙パックのみ）",
			"address":"柏原市今町１丁目２−１１",
			"tel":null,
			"description":"紙パックのみ回収してます。",
			"links":[{
				"title":"ペットボトル・紙パックリサイクル",
				"url":"/docs/2014051500028/"
			}],
			"lat":34.587397,
			"lng":135.621637
		},{
			"name":"府営河原住宅",
			"address":"柏原市河原町１-１",
			"tel":null,
			"description":null,
			"links":[{
				"title":"ペットボトル・紙パックリサイクル",
				"url":"/docs/2014051500028/"
			}],
			"lat":34.590651,
			"lng":135.62294
		},{
			"name":"府営円明住宅",
			"address":"柏原市円明町１４−１",
			"tel":null,
			"description":null,
			"links":[{
				"title":"ペットボトル・紙パックリサイクル",
				"url":"/docs/2014051500028/"
			}],
			"lat":34.560622,
			"lng":135.627477
		},{
			"name":"府営芝山住宅",
			"address":"柏原市国分市場１丁目６-１",
			"tel":null,
			"description":null,
			"links":[{
				"title":"ペットボトル・紙パックリサイクル",
				"url":"/docs/2014051500028/"
			}],
			"lat":34.570247,
			"lng":135.647489
		},{
			"name":"全南病院（ペットボトルのみ）",
			"address":"柏原市国分本町２丁目３−１８",
			"tel":null,
			"description":"ペットボトルのみ回収してます。",
			"links":[{
				"title":"ペットボトル・紙パックリサイクル",
				"url":"/docs/2014051500028/"
			}],
			"lat":34.565348,
			"lng":135.638168
		},{
			"name":"自立支援センター",
			"address":"柏原市本郷3丁目9番62号",
			"tel":"072-971-2035",
			"description":null,
			"links":[{
				"title":"ペットボトル・紙パックリサイクル",
				"url":"/docs/2014051500028/"
			}],
			"lat":34.592873,
			"lng":135.618238
		}]
	},
	"category2":{
		"name":"古紙",
		"places":[{
			"name":"市役所教育センター",
			"address":"柏原市安堂町1番43号",
			"tel":"072-972-1501",
			"description":null,
			"links":[{
				"title":"古紙リサイクル",
				"url":"/docs/2014082000016/"
			}],
			"lat":34.578414,
			"lng":135.629184
		},{
			"name":"健康福祉センター（オアシス）",
			"address":"柏原市大県4丁目15番35号",
			"tel":"072-973-5516",
			"description":null,
			"links":[{
				"title":"古紙リサイクル",
				"url":"/docs/2014082000016/"
			}],
			"lat":34.587548,
			"lng":135.63305
		},{
			"name":"KIホール（勤労者センター）",
			"address":"柏原市大正2丁目10番1号",
			"tel":"072-972-5557",
			"description":null,
			"links":[{
				"title":"古紙リサイクル",
				"url":"/docs/2014082000016/"
			}],
			"lat":34.583758,
			"lng":135.618229
		},{
			"name":"市民サービスコーナー",
			"address":"柏原市上市1丁目1番33号",
			"tel":"072-972-6322",
			"description":null,
			"links":[{
				"title":"古紙リサイクル",
				"url":"/docs/2014082000016/"
			}],
			"lat":34.586633,
			"lng":135.623098
		},{
			"name":"自立支援センター",
			"address":"柏原市本郷3丁目9番62号",
			"tel":"072-971-2035",
			"description":null,
			"links":[{
				"title":"古紙リサイクル",
				"url":"/docs/2014082000016/"
			}],
			"lat":34.592873,
			"lng":135.618238
		},{
			"name":"国分図書館",
			"address":"柏原市田辺1丁目3番7号",
			"tel":"072-975-1212",
			"description":null,
			"links":[{
				"title":"古紙リサイクル",
				"url":"/docs/2014082000016/"
			}],
			"lat":34.562899,
			"lng":135.637989
		},{
			"name":"国分出張所",
			"address":"柏原市国分本町2丁目7番2号",
			"tel":"072-978-6001",
			"description":null,
			"links":[{
				"title":"古紙リサイクル",
				"url":"/docs/2014082000016/"
			}],
			"lat":34.565215,
			"lng":135.636424
		},{
			"name":"玉手浄水場",
			"address":"柏原市玉手町17番1号",
			"tel":"072-978-6671",
			"description":null,
			"links":[{
				"title":"古紙リサイクル",
				"url":"/docs/2014082000016/"
			}],
			"lat":34.566346,
			"lng":135.623109
		},{
			"name":"市立体育館",
			"address":"柏原市玉手町25-80",
			"tel":"072-977-8600",
			"description":null,
			"links":[{
				"title":"古紙リサイクル",
				"url":"/docs/2014082000016/"
			}],
			"lat":34.56722,
			"lng":135.63049
		},{
			"name":"堅上出張所",
			"address":"柏原市雁多尾畑4812番地の1",
			"tel":"072-979-0572",
			"description":null,
			"links":[{
				"title":"古紙リサイクル",
				"url":"/docs/2014082000016/"
			}],
			"lat":34.586882,
			"lng":135.664658
		}]
	},
	"category3":{
		"name":"小型家電",
		"places":[{
			"name":"市役所本庁",
			"address":"柏原市安堂町1番55号",
			"tel":"072-972-1501",
			"description":null,
			"links":[{
				"title":"小型家電リサイクル",
				"url":"/docs/2014121100011/"
			}],
			"lat":34.579288,
			"lng":135.628656
		},{
			"name":"市役所教育センター",
			"address":"柏原市安堂町1番43号",
			"tel":"072-972-1501",
			"description":null,
			"links":[{
				"title":"小型家電リサイクル",
				"url":"/docs/2014121100011/"
			}],
			"lat":34.578414,
			"lng":135.629184
		},{
			"name":"健康福祉センター（オアシス）",
			"address":"柏原市大県4丁目15番35号",
			"tel":"072-973-5516",
			"description":null,
			"links":[{
				"title":"小型家電リサイクル",
				"url":"/docs/2014121100011/"
			}],
			"lat":34.587548,
			"lng":135.63305
		},{
			"name":"自立支援センター",
			"address":"柏原市本郷3丁目9番62号",
			"tel":"072-971-2035",
			"description":null,
			"links":[{
				"title":"小型家電リサイクル",
				"url":"/docs/2014121100011/"
			}],
			"lat":34.592873,
			"lng":135.618238
		},{
			"name":"リビエールホール（柏原市民文化会館）",
			"address":"柏原市安堂町1番60号",
			"tel":"072-972-6682",
			"description":null,
			"links":[{
				"title":"小型家電リサイクル",
				"url":"/docs/2014121100011/"
			}],
			"lat":34.57988,
			"lng":135.628463
		},{
			"name":"国分合同会館",
			"address":"柏原市国分本町2丁目7番2号",
			"tel":"072-978-6001",
			"description":null,
			"links":[{
				"title":"小型家電リサイクル",
				"url":"/docs/2014121100011/"
			}],
			"lat":34.565215,
			"lng":135.636424
		},{
			"name":"国分図書館",
			"address":"柏原市田辺1丁目3番7号",
			"tel":"072-975-1212",
			"description":null,
			"links":[{
				"title":"小型家電リサイクル",
				"url":"/docs/2014121100011/"
			}],
			"lat":34.562899,
			"lng":135.637989
		},{
			"name":"玉手浄水場",
			"address":"柏原市玉手町17番1号",
			"tel":"072-978-6671",
			"description":null,
			"links":[{
				"title":"小型家電リサイクル",
				"url":"/docs/2014121100011/"
			}],
			"lat":34.566346,
			"lng":135.623109
		},{
			"name":"ジョイフル国分（ライフ国分店）",
			"address":"柏原市国分本町１丁目１－１",
			"tel":"072-977-8841",
			"description":null,
			"links":[{
				"title":"小型家電リサイクル",
				"url":"/docs/2014121100011/"
			}],
			"lat":34.566876,
			"lng":135.636008
		},{
			"name":"デイリーカナートイズミヤ玉手店",
			"address":"柏原市玉手町２４−３２",
			"tel":"072-977-7610",
			"description":null,
			"links":[{
				"title":"小型家電リサイクル",
				"url":"/docs/2014121100011/"
			}],
			"lat":34.567802,
			"lng":135.627041
		},{
			"name":"ジョイフルプラザはやし国分店",
			"address":"柏原市国分西2丁目234",
			"tel":"072-977-4110",
			"description":null,
			"links":[{
				"title":"小型家電リサイクル",
				"url":"/docs/2014121100011/"
			}],
			"lat":34.564422,
			"lng":135.635218
		}]
	},
	"category4":{
		"name":"家電リサイクル引取場所",
		"places":[{
			"name":"日本通運 八尾倉庫",
			"address":"八尾市神武町2-24",
			"tel":"072-991-2957",
			"description":"事前に郵便局でリサイクル料金を支払い、家電リサイクル券と一緒に持ち込んでください。",
			"links":[{
				"title":"家電リサイクル",
				"url":"/docs/2014051500035/"
			}],
			"lat":34.625653,
			"lng":135.577212
		},{
			"name":"ロジックナンカイ 八尾事業所",
			"address":"八尾市南太子堂5-4-27",
			"tel":"072-929-2205",
			"description":"事前に郵便局でリサイクル料金を支払い、家電リサイクル券と一緒に持ち込んでください。",
			"links":[{
				"title":"家電リサイクル",
				"url":"/docs/2014051500035/"
			}],
			"lat":34.609883,
			"lng":135.584883
		}]
	}
}